[{"name":"Shanghai","iso3":"CHN","country":"Chine","lat":31.2222,"lng":121.4581,"pop":24874500},{"name":"Pékin","iso3":"CHN","country":"Chine","lat":39.9075,"lng":116.3972,"pop":18960744},{"name":"Shenzhen","iso3":"CHN","country":"Chine","lat":22.5455,"lng":114.0683,"pop":17494398},{"name":"Guangzhou","iso3":"CHN","country":"Chine","lat":23.1167,"lng":113.25,"pop":16096724},{"name":"Kinshasa","iso3":"COD","country":"Congo (Rép. dém.)","lat":-4.3276,"lng":15.3136,"pop":16000000},{"name":"Istanbul","iso3":"TUR","country":"Turquie","lat":41.0138,"lng":28.9497,"pop":15701602},{"name":"Lagos","iso3":"NGA","country":"Nigéria","lat":6.4541,"lng":3.3947,"pop":15388000},{"name":"Hô-Chi-Minh-Ville","iso3":"VNM","country":"Viêt Nam","lat":10.823,"lng":106.6296,"pop":14002598},{"name":"Chengdu","iso3":"CHN","country":"Chine","lat":30.6667,"lng":104.0667,"pop":13568357},{"name":"Lahore","iso3":"PAK","country":"Pakistan","lat":31.558,"lng":74.3507,"pop":13004135},{"name":"Mumbai","iso3":"IND","country":"Inde","lat":19.0728,"lng":72.8826,"pop":12691836},{"name":"São Paulo","iso3":"BRA","country":"Brésil","lat":-23.5475,"lng":-46.6361,"pop":12400232},{"name":"Mexico City","iso3":"MEX","country":"Mexique","lat":19.4285,"lng":-99.1277,"pop":12294193},{"name":"Karachi","iso3":"PAK","country":"Pakistan","lat":24.8608,"lng":67.0104,"pop":11624219},{"name":"Tianjin","iso3":"CHN","country":"Chine","lat":39.1422,"lng":117.1767,"pop":11090314},{"name":"Delhi","iso3":"IND","country":"Inde","lat":28.6519,"lng":77.2315,"pop":11034555},{"name":"Wuhan","iso3":"CHN","country":"Chine","lat":30.5833,"lng":114.2667,"pop":10392693},{"name":"Moscou","iso3":"RUS","country":"Russie","lat":55.752,"lng":37.6178,"pop":10381222},{"name":"Dhaka","iso3":"BGD","country":"Bangladesh","lat":23.7104,"lng":90.4074,"pop":10356500},{"name":"Seoul","iso3":"KOR","country":"Corée du Sud","lat":37.566,"lng":126.9784,"pop":10349312},{"name":"Tokyo","iso3":"JPN","country":"Japon","lat":35.6895,"lng":139.6917,"pop":9733276},{"name":"Dongguan","iso3":"CHN","country":"Chine","lat":23.018,"lng":113.7487,"pop":9644871},{"name":"Le Caire","iso3":"EGY","country":"Égypte","lat":30.0626,"lng":31.2497,"pop":9606916},{"name":"Xi’an","iso3":"CHN","country":"Chine","lat":34.2583,"lng":108.9286,"pop":9600000},{"name":"Johannesburg","iso3":"ZAF","country":"Afrique du Sud","lat":-26.2023,"lng":28.0436,"pop":9418183},{"name":"Nanjing","iso3":"CHN","country":"Chine","lat":32.0617,"lng":118.7778,"pop":9314685},{"name":"Londres","iso3":"GBR","country":"Royaume-Uni","lat":51.5085,"lng":-0.1257,"pop":8961989},{"name":"New York City","iso3":"USA","country":"États-Unis","lat":40.7143,"lng":-74.006,"pop":8804190},{"name":"Jakarta","iso3":"IDN","country":"Indonésie","lat":-6.2146,"lng":106.8451,"pop":8540121},{"name":"Bengaluru","iso3":"IND","country":"Inde","lat":12.9719,"lng":77.5937,"pop":8495492},{"name":"Hanoi","iso3":"VNM","country":"Viêt Nam","lat":21.0245,"lng":105.8412,"pop":8053663},{"name":"Lima","iso3":"PER","country":"Pérou","lat":-12.0432,"lng":-77.0282,"pop":7737002},{"name":"Bogotá","iso3":"COL","country":"Colombie","lat":4.6097,"lng":-74.0817,"pop":7674366},{"name":"Baghdad","iso3":"IRQ","country":"Irak","lat":33.3406,"lng":44.4009,"pop":7216000},{"name":"Téhéran","iso3":"IRN","country":"Iran","lat":35.6944,"lng":51.4215,"pop":7153309},{"name":"Hyderabad","iso3":"IND","country":"Inde","lat":17.384,"lng":78.4564,"pop":6993262},{"name":"Rio de Janeiro","iso3":"BRA","country":"Brésil","lat":-22.9064,"lng":-43.1822,"pop":6747815},{"name":"Ahmedabad","iso3":"IND","country":"Inde","lat":23.0258,"lng":72.5873,"pop":6357693},{"name":"Abidjan","iso3":"CIV","country":"Côte d'Ivoire","lat":5.3544,"lng":-4.0017,"pop":6321017},{"name":"Sydney","iso3":"AUS","country":"Australie","lat":-33.8678,"lng":151.2073,"pop":5638830},{"name":"Brisbane","iso3":"AUS","country":"Australie","lat":-27.4679,"lng":153.0281,"pop":5638830},{"name":"Singapore","iso3":"SGP","country":"Singapour","lat":1.2897,"lng":103.8501,"pop":5638700},{"name":"Melbourne","iso3":"AUS","country":"Australie","lat":-37.814,"lng":144.9633,"pop":5435590},{"name":"Dar es Salaam","iso3":"TZA","country":"Tanzanie","lat":-6.8235,"lng":39.2695,"pop":5383728},{"name":"Saint-Pétersbourg","iso3":"RUS","country":"Russie","lat":59.9386,"lng":30.3141,"pop":5351935},{"name":"Alexandria","iso3":"EGY","country":"Égypte","lat":31.2018,"lng":29.9158,"pop":5263542},{"name":"Bangkok","iso3":"THA","country":"Thaïlande","lat":13.754,"lng":100.5014,"pop":5104476},{"name":"Kano","iso3":"NGA","country":"Nigéria","lat":12.0001,"lng":8.5167,"pop":4910000},{"name":"Santiago","iso3":"CHL","country":"Chili","lat":-33.4569,"lng":-70.6483,"pop":4837295},{"name":"Cape Town","iso3":"ZAF","country":"Afrique du Sud","lat":-33.9258,"lng":18.4232,"pop":4772846},{"name":"Peshawar","iso3":"PAK","country":"Pakistan","lat":34.008,"lng":71.5785,"pop":4758762},{"name":"Jeddah","iso3":"SAU","country":"Arabie Saoudite","lat":21.4901,"lng":39.1862,"pop":4697000},{"name":"Chennai","iso3":"IND","country":"Inde","lat":13.0878,"lng":80.2785,"pop":4681087},{"name":"Calcutta","iso3":"IND","country":"Inde","lat":22.5626,"lng":88.363,"pop":4631392},{"name":"Surat","iso3":"IND","country":"Inde","lat":21.1959,"lng":72.8302,"pop":4591246},{"name":"Yangon","iso3":"MMR","country":"Birmanie","lat":16.8053,"lng":96.1561,"pop":4477638},{"name":"Kabul","iso3":"AFG","country":"Afghanistan","lat":34.5281,"lng":69.1723,"pop":4434550},{"name":"Nairobi","iso3":"KEN","country":"Kenya","lat":-1.2833,"lng":36.8167,"pop":4397073},{"name":"Giza","iso3":"EGY","country":"Égypte","lat":30.0094,"lng":31.2086,"pop":4367343},{"name":"Bamako","iso3":"MLI","country":"Mali","lat":12.6091,"lng":-7.9752,"pop":4227569},{"name":"Riyadh","iso3":"SAU","country":"Arabie Saoudite","lat":24.6877,"lng":46.7219,"pop":4205961},{"name":"Chattogram","iso3":"BGD","country":"Bangladesh","lat":22.3384,"lng":91.8317,"pop":3920222},{"name":"Addis Ababa","iso3":"ETH","country":"Éthiopie","lat":9.025,"lng":38.7469,"pop":3860000},{"name":"Los Angeles","iso3":"USA","country":"États-Unis","lat":34.0522,"lng":-118.2437,"pop":3820914},{"name":"Faisalabad","iso3":"PAK","country":"Pakistan","lat":31.4155,"lng":73.0897,"pop":3800193},{"name":"Dubai","iso3":"ARE","country":"Émirats arabes unis","lat":25.0772,"lng":55.3093,"pop":3790000},{"name":"Yokohama","iso3":"JPN","country":"Japon","lat":35.4333,"lng":139.65,"pop":3777491},{"name":"Casablanca","iso3":"MAR","country":"Maroc","lat":33.5883,"lng":-7.6114,"pop":3665954},{"name":"Ibadan","iso3":"NGA","country":"Nigéria","lat":7.3776,"lng":3.9059,"pop":3649000},{"name":"Ankara","iso3":"TUR","country":"Turquie","lat":39.9199,"lng":32.8543,"pop":3517182},{"name":"Berlin","iso3":"DEU","country":"Allemagne","lat":52.5244,"lng":13.4105,"pop":3426354},{"name":"Rawalpindi","iso3":"PAK","country":"Pakistan","lat":33.5973,"lng":73.0479,"pop":3357612},{"name":"Durban","iso3":"ZAF","country":"Afrique du Sud","lat":-29.8579,"lng":31.0292,"pop":3338026},{"name":"Busan","iso3":"KOR","country":"Corée du Sud","lat":35.1017,"lng":129.03,"pop":3285147},{"name":"Madrid","iso3":"ESP","country":"Espagne","lat":40.4165,"lng":-3.7026,"pop":3255944},{"name":"Pyongyang","iso3":"PRK","country":"Corée du Nord","lat":39.0339,"lng":125.7543,"pop":3222000},{"name":"Pune","iso3":"IND","country":"Inde","lat":18.5196,"lng":73.8554,"pop":3124458},{"name":"Bursa","iso3":"TUR","country":"Turquie","lat":40.1956,"lng":29.0601,"pop":3101833},{"name":"Quezon City","iso3":"PHL","country":"Philippines","lat":14.6488,"lng":121.0509,"pop":3084270},{"name":"Jaipur","iso3":"IND","country":"Inde","lat":26.9196,"lng":75.7878,"pop":3046163},{"name":"Surabaya","iso3":"IDN","country":"Indonésie","lat":-7.2492,"lng":112.7508,"pop":3018022},{"name":"Incheon","iso3":"KOR","country":"Corée du Sud","lat":37.4565,"lng":126.7052,"pop":3015482},{"name":"Caracas","iso3":"VEN","country":"Venezuela","lat":10.488,"lng":-66.8792,"pop":3000000},{"name":"Kyiv","iso3":"UKR","country":"Ukraine","lat":50.4547,"lng":30.5238,"pop":2952301},{"name":"İzmir","iso3":"TUR","country":"Turquie","lat":38.4127,"lng":27.1384,"pop":2938292},{"name":"Buenos Aires","iso3":"ARG","country":"Argentine","lat":-34.6131,"lng":-58.3772,"pop":2891082},{"name":"Toronto","iso3":"CAN","country":"Canada","lat":43.7064,"lng":-79.3986,"pop":2794356},{"name":"Quito","iso3":"ECU","country":"Équateur","lat":-0.2298,"lng":-78.525,"pop":2781641},{"name":"Luanda","iso3":"AGO","country":"Angola","lat":-8.8368,"lng":13.2343,"pop":2776168},{"name":"Osaka","iso3":"JPN","country":"Japon","lat":34.6938,"lng":135.5011,"pop":2753862},{"name":"Brooklyn","iso3":"USA","country":"États-Unis","lat":40.6501,"lng":-73.9496,"pop":2736074},{"name":"Guayaquil","iso3":"ECU","country":"Équateur","lat":-2.1962,"lng":-79.8862,"pop":2723665},{"name":"Belo Horizonte","iso3":"BRA","country":"Brésil","lat":-19.9208,"lng":-43.9378,"pop":2721564},{"name":"Salvador","iso3":"BRA","country":"Brésil","lat":-12.9756,"lng":-38.491,"pop":2711840},{"name":"Abuja","iso3":"NGA","country":"Nigéria","lat":9.0579,"lng":7.4951,"pop":2690000},{"name":"Gazipur","iso3":"BGD","country":"Bangladesh","lat":23.9984,"lng":90.4223,"pop":2674697},{"name":"Chicago","iso3":"USA","country":"États-Unis","lat":41.85,"lng":-87.65,"pop":2664452},{"name":"Bekasi","iso3":"IDN","country":"Indonésie","lat":-6.2349,"lng":106.9896,"pop":2648272},{"name":"Dakar","iso3":"SEN","country":"Sénégal","lat":14.6937,"lng":-17.4441,"pop":2646503},{"name":"Haiphong","iso3":"VNM","country":"Viêt Nam","lat":20.8648,"lng":106.6834,"pop":2625200},{"name":"Mogadishu","iso3":"SOM","country":"Somalie","lat":2.0371,"lng":45.3438,"pop":2587183},{"name":"Kumasi","iso3":"GHA","country":"Ghana","lat":6.6885,"lng":-1.6244,"pop":2544530},{"name":"Bandung","iso3":"IDN","country":"Indonésie","lat":-6.9222,"lng":107.6069,"pop":2528163},{"name":"Gujranwala","iso3":"PAK","country":"Pakistan","lat":32.1557,"lng":74.187,"pop":2511118},{"name":"Medan","iso3":"IDN","country":"Indonésie","lat":3.5833,"lng":98.6667,"pop":2486283},{"name":"Ouagadougou","iso3":"BFA","country":"Burkina Faso","lat":12.3657,"lng":-1.5339,"pop":2415266},{"name":"Fortaleza","iso3":"BRA","country":"Brésil","lat":-3.7172,"lng":-38.5431,"pop":2400000},{"name":"Cali","iso3":"COL","country":"Colombie","lat":3.4305,"lng":-76.5199,"pop":2392877},{"name":"Perth","iso3":"AUS","country":"Australie","lat":-31.9522,"lng":115.8614,"pop":2384371},{"name":"Daegu","iso3":"KOR","country":"Corée du Sud","lat":35.8703,"lng":128.5911,"pop":2365523},{"name":"Alger","iso3":"DZA","country":"Algérie","lat":36.7323,"lng":3.0875,"pop":2364230},{"name":"Baku","iso3":"AZE","country":"Azerbaïdjan","lat":40.3777,"lng":49.892,"pop":2351300},{"name":"Nagoya","iso3":"JPN","country":"Japon","lat":35.1815,"lng":136.9064,"pop":2332176},{"name":"Rome","iso3":"ITA","country":"Italie","lat":41.8919,"lng":12.5113,"pop":2318895},{"name":"Queens","iso3":"USA","country":"États-Unis","lat":40.6815,"lng":-73.8365,"pop":2316841},{"name":"Houston","iso3":"USA","country":"États-Unis","lat":29.7633,"lng":-95.3633,"pop":2314157},{"name":"Mashhad","iso3":"IRN","country":"Iran","lat":36.2981,"lng":59.6057,"pop":2307177},{"name":"Gaziantep","iso3":"TUR","country":"Turquie","lat":37.0594,"lng":37.3825,"pop":2222415},{"name":"Lubumbashi","iso3":"COD","country":"Congo (Rép. dém.)","lat":-11.6609,"lng":27.4794,"pop":2221925},{"name":"Manaus","iso3":"BRA","country":"Brésil","lat":-3.1019,"lng":-60.025,"pop":2219580},{"name":"Lusaka","iso3":"ZMB","country":"Zambie","lat":-15.4067,"lng":28.2871,"pop":2212301},{"name":"Brasília","iso3":"BRA","country":"Brésil","lat":-15.7797,"lng":-47.9297,"pop":2207718},{"name":"Santo Domingo","iso3":"DOM","country":"République dominicaine","lat":18.4719,"lng":-69.8923,"pop":2201941},{"name":"Lomé","iso3":"TGO","country":"Togo","lat":6.1287,"lng":1.2215,"pop":2188376},{"name":"Multan","iso3":"PAK","country":"Pakistan","lat":30.1968,"lng":71.4782,"pop":2169915},{"name":"Havana","iso3":"CUB","country":"Cuba","lat":23.133,"lng":-82.383,"pop":2163824},{"name":"Depok","iso3":"IDN","country":"Indonésie","lat":-6.4,"lng":106.8186,"pop":2163635},{"name":"Paris","iso3":"FRA","country":"France","lat":48.8534,"lng":2.3488,"pop":2138551},{"name":"Port Harcourt","iso3":"NGA","country":"Nigéria","lat":4.7774,"lng":7.0134,"pop":2120000},{"name":"Pretoria","iso3":"ZAF","country":"Afrique du Sud","lat":-25.7449,"lng":28.1878,"pop":2112693},{"name":"Córdoba","iso3":"ARG","country":"Argentine","lat":-31.4065,"lng":-64.1885,"pop":2106734},{"name":"Mbuji-Mayi","iso3":"COD","country":"Congo (Rép. dém.)","lat":-6.136,"lng":23.5898,"pop":2101332},{"name":"Aleppo","iso3":"SYR","country":"Syrie","lat":36.2012,"lng":37.1612,"pop":2098210},{"name":"La Paz","iso3":"BOL","country":"Bolivie","lat":-16.5,"lng":-68.15,"pop":2004652},{"name":"Medellín","iso3":"COL","country":"Colombie","lat":6.245,"lng":-75.5715,"pop":1999979},{"name":"Brazzaville","iso3":"COG","country":"Congo","lat":-4.2661,"lng":15.2832,"pop":1982000},{"name":"Tashkent","iso3":"UZB","country":"Ouzbékistan","lat":41.2647,"lng":69.2163,"pop":1978028},{"name":"Almaty","iso3":"KAZ","country":"Kazakhstan","lat":43.2525,"lng":76.9115,"pop":1977011},{"name":"Khartoum","iso3":"SDN","country":"Soudan","lat":15.5518,"lng":32.5324,"pop":1974647},{"name":"Hamburg","iso3":"DEU","country":"Allemagne","lat":53.5507,"lng":9.993,"pop":1973896},{"name":"Sapporo","iso3":"JPN","country":"Japon","lat":43.0667,"lng":141.35,"pop":1973832},{"name":"Accra","iso3":"GHA","country":"Ghana","lat":5.556,"lng":-0.1969,"pop":1963264},{"name":"Curitiba","iso3":"BRA","country":"Brésil","lat":-25.4278,"lng":-49.2731,"pop":1948626},{"name":"Sanaa","iso3":"YEM","country":"Yémen","lat":15.3545,"lng":44.2065,"pop":1937451},{"name":"Conakry","iso3":"GIN","country":"Guinée","lat":9.538,"lng":-13.6773,"pop":1928389},{"name":"Tangerang","iso3":"IDN","country":"Indonésie","lat":-6.1781,"lng":106.63,"pop":1927815},{"name":"Tijuana","iso3":"MEX","country":"Mexique","lat":32.5027,"lng":-117.0037,"pop":1922523},{"name":"Hyderabad","iso3":"PAK","country":"Pakistan","lat":25.3969,"lng":68.3772,"pop":1921275},{"name":"Beyrouth","iso3":"LBN","country":"Liban","lat":33.8933,"lng":35.5016,"pop":1916100},{"name":"Bucarest","iso3":"ROU","country":"Roumanie","lat":44.4323,"lng":26.1063,"pop":1877155},{"name":"Camayenne","iso3":"GIN","country":"Guinée","lat":9.535,"lng":-13.6878,"pop":1871242},{"name":"Kakamega","iso3":"KEN","country":"Kenya","lat":0.2842,"lng":34.7523,"pop":1867579},{"name":"Kaduna","iso3":"NGA","country":"Nigéria","lat":10.5264,"lng":7.4388,"pop":1850000},{"name":"Omdurman","iso3":"SDN","country":"Soudan","lat":15.6445,"lng":32.4777,"pop":1849659},{"name":"Davao","iso3":"PHL","country":"Philippines","lat":7.0731,"lng":125.6128,"pop":1848947},{"name":"Iztapalapa","iso3":"MEX","country":"Mexique","lat":19.3553,"lng":-99.0622,"pop":1835486},{"name":"Diyarbakır","iso3":"TUR","country":"Turquie","lat":37.9136,"lng":40.2172,"pop":1833684},{"name":"Santa Cruz de la Sierra","iso3":"BOL","country":"Bolivie","lat":-17.7863,"lng":-63.1812,"pop":1831434},{"name":"Adana","iso3":"TUR","country":"Turquie","lat":36.9862,"lng":35.3253,"pop":1816750},{"name":"Abu Dhabi","iso3":"ARE","country":"Émirats arabes unis","lat":24.4512,"lng":54.397,"pop":1807000},{"name":"Palembang","iso3":"IDN","country":"Indonésie","lat":-2.9167,"lng":104.7458,"pop":1801367},{"name":"Sharjah","iso3":"ARE","country":"Émirats arabes unis","lat":25.3342,"lng":55.4122,"pop":1800000},{"name":"Benin City","iso3":"NGA","country":"Nigéria","lat":6.3381,"lng":5.6258,"pop":1782000},{"name":"Montréal","iso3":"CAN","country":"Canada","lat":45.5088,"lng":-73.5878,"pop":1762949},{"name":"Maracaibo","iso3":"VEN","country":"Venezuela","lat":10.6423,"lng":-71.6109,"pop":1752602},{"name":"Minsk","iso3":"BLR","country":"Biélorussie","lat":53.9002,"lng":27.5665,"pop":1742124},{"name":"Budapest","iso3":"HUN","country":"Hongrie","lat":47.4984,"lng":19.0404,"pop":1741041},{"name":"Caloocan","iso3":"PHL","country":"Philippines","lat":14.6495,"lng":120.9679,"pop":1712945},{"name":"Varsovie","iso3":"POL","country":"Pologne","lat":52.2298,"lng":21.0118,"pop":1702139},{"name":"Soweto","iso3":"ZAF","country":"Afrique du Sud","lat":-26.2678,"lng":27.8585,"pop":1695047},{"name":"Semarang","iso3":"IDN","country":"Indonésie","lat":-6.9931,"lng":110.4208,"pop":1694740},{"name":"Puebla","iso3":"MEX","country":"Mexique","lat":19.0478,"lng":-98.2072,"pop":1692181},{"name":"Vienne","iso3":"AUT","country":"Autriche","lat":48.2085,"lng":16.3721,"pop":1691468},{"name":"Barcelona","iso3":"ESP","country":"Espagne","lat":41.3888,"lng":2.159,"pop":1686208},{"name":"Mosul","iso3":"IRQ","country":"Irak","lat":36.335,"lng":43.1189,"pop":1683000},{"name":"Kampala","iso3":"UGA","country":"Ouganda","lat":0.3163,"lng":32.5822,"pop":1680600},{"name":"Rabat","iso3":"MAR","country":"Maroc","lat":34.0132,"lng":-6.8326,"pop":1655753},{"name":"Recife","iso3":"BRA","country":"Brésil","lat":-8.0539,"lng":-34.8811,"pop":1653461},{"name":"Phoenix","iso3":"USA","country":"États-Unis","lat":33.4484,"lng":-112.074,"pop":1650070},{"name":"Ecatepec de Morelos","iso3":"MEX","country":"Mexique","lat":19.6049,"lng":-99.0606,"pop":1645352},{"name":"Valencia","iso3":"VEN","country":"Venezuela","lat":10.1615,"lng":-68.0004,"pop":1619470},{"name":"Novosibirsk","iso3":"RUS","country":"Russie","lat":55.0226,"lng":82.9317,"pop":1612833},{"name":"Erbil","iso3":"IRQ","country":"Irak","lat":36.1912,"lng":44.0094,"pop":1612700},{"name":"Fukuoka","iso3":"JPN","country":"Japon","lat":33.6,"lng":130.4167,"pop":1612392},{"name":"Manila","iso3":"PHL","country":"Philippines","lat":14.6042,"lng":120.9822,"pop":1600000},{"name":"Santiago de Querétaro","iso3":"MEX","country":"Mexique","lat":20.5881,"lng":-100.3881,"pop":1594212},{"name":"León de los Aldama","iso3":"MEX","country":"Mexique","lat":21.1218,"lng":-101.6825,"pop":1579803},{"name":"Makkah","iso3":"SAU","country":"Arabie Saoudite","lat":21.4266,"lng":39.8256,"pop":1578722},{"name":"Philadelphia","iso3":"USA","country":"États-Unis","lat":39.9524,"lng":-75.1636,"pop":1573916},{"name":"Phnom Penh","iso3":"KHM","country":"Cambodge","lat":11.5625,"lng":104.916,"pop":1573544},{"name":"Damas","iso3":"SYR","country":"Syrie","lat":33.5102,"lng":36.2913,"pop":1569394},{"name":"Quetta","iso3":"PAK","country":"Pakistan","lat":30.1841,"lng":67.0014,"pop":1565546},{"name":"Onitsha","iso3":"NGA","country":"Nigéria","lat":6.1498,"lng":6.7857,"pop":1553000},{"name":"Auckland","iso3":"NZL","country":"Nouvelle-Zélande","lat":-36.8485,"lng":174.7635,"pop":1547200},{"name":"Isfahan","iso3":"IRN","country":"Iran","lat":32.6525,"lng":51.6746,"pop":1547164},{"name":"Astana","iso3":"KAZ","country":"Kazakhstan","lat":51.1801,"lng":71.446,"pop":1544142},{"name":"Harare","iso3":"ZWE","country":"Zimbabwe","lat":-17.8277,"lng":31.0534,"pop":1542813},{"name":"Monrovia","iso3":"LBR","country":"Liberia","lat":6.3005,"lng":-10.7969,"pop":1542549},{"name":"Kawasaki","iso3":"JPN","country":"Japon","lat":35.5206,"lng":139.7172,"pop":1538262},{"name":"Goiânia","iso3":"BRA","country":"Brésil","lat":-16.6786,"lng":-49.2539,"pop":1536097},{"name":"San Antonio","iso3":"USA","country":"États-Unis","lat":29.4241,"lng":-98.4936,"pop":1526656},{"name":"Kobe","iso3":"JPN","country":"Japon","lat":34.6913,"lng":135.183,"pop":1525152},{"name":"Stockholm","iso3":"SWE","country":"Suède","lat":59.3294,"lng":18.0687,"pop":1515017},{"name":"Ciudad Juárez","iso3":"MEX","country":"Mexique","lat":31.7202,"lng":-106.4608,"pop":1512450},{"name":"Cần Thơ","iso3":"VNM","country":"Viêt Nam","lat":10.0371,"lng":105.7883,"pop":1507187},{"name":"Munich","iso3":"DEU","country":"Allemagne","lat":48.1374,"lng":11.5755,"pop":1505005},{"name":"Khulna","iso3":"BGD","country":"Bangladesh","lat":22.8098,"lng":89.5644,"pop":1500689},{"name":"Yekaterinburg","iso3":"RUS","country":"Russie","lat":56.8573,"lng":60.6153,"pop":1495066},{"name":"Manhattan","iso3":"USA","country":"États-Unis","lat":40.7834,"lng":-73.9663,"pop":1487536},{"name":"Asunción","iso3":"PRY","country":"Paraguay","lat":-25.2865,"lng":-57.647,"pop":1482200},{"name":"Zapopan","iso3":"MEX","country":"Mexique","lat":20.7211,"lng":-103.3874,"pop":1476491},{"name":"Makassar","iso3":"IDN","country":"Indonésie","lat":-5.1486,"lng":119.4319,"pop":1474393},{"name":"Adelaide","iso3":"AUS","country":"Australie","lat":-34.9287,"lng":138.5986,"pop":1469163},{"name":"Kuala Lumpur","iso3":"MYS","country":"Malaisie","lat":3.1412,"lng":101.6865,"pop":1453975},{"name":"Karaj","iso3":"IRN","country":"Iran","lat":35.8327,"lng":50.9915,"pop":1448075},{"name":"Kathmandu","iso3":"NPL","country":"Népal","lat":27.7017,"lng":85.3206,"pop":1442271},{"name":"Daejeon","iso3":"KOR","country":"Corée du Sud","lat":36.3491,"lng":127.3849,"pop":1441203},{"name":"Tabriz","iso3":"IRN","country":"Iran","lat":38.08,"lng":46.2919,"pop":1424641},{"name":"Kharkiv","iso3":"UKR","country":"Ukraine","lat":49.9818,"lng":36.2548,"pop":1421125},{"name":"Huế","iso3":"VNM","country":"Viêt Nam","lat":16.4619,"lng":107.5955,"pop":1380000},{"name":"Milan","iso3":"ITA","country":"Italie","lat":45.4643,"lng":9.1895,"pop":1371498},{"name":"N'Djamena","iso3":"TCD","country":"Tchad","lat":12.1067,"lng":15.0444,"pop":1359526},{"name":"Bannu","iso3":"PAK","country":"Pakistan","lat":32.9853,"lng":70.604,"pop":1357890},{"name":"Antananarivo","iso3":"MDG","country":"Madagascar","lat":-18.9137,"lng":47.5361,"pop":1349501},{"name":"Abobo","iso3":"CIV","country":"Côte d'Ivoire","lat":5.4161,"lng":-4.0159,"pop":1340083},{"name":"Douala","iso3":"CMR","country":"Cameroun","lat":4.0483,"lng":9.7043,"pop":1338082},{"name":"Basrah","iso3":"IRQ","country":"Irak","lat":30.5085,"lng":47.7804,"pop":1326564},{"name":"Niamey","iso3":"NER","country":"Niger","lat":13.5137,"lng":2.1098,"pop":1323691},{"name":"Taguig","iso3":"PHL","country":"Philippines","lat":14.5243,"lng":121.0792,"pop":1308085},{"name":"Calgary","iso3":"CAN","country":"Canada","lat":51.0501,"lng":-114.0853,"pop":1306784},{"name":"Tripoli","iso3":"LBY","country":"Libye","lat":32.8874,"lng":13.1873,"pop":1302947},{"name":"Madinah","iso3":"SAU","country":"Arabie Saoudite","lat":24.4686,"lng":39.6142,"pop":1300000},{"name":"Yaoundé","iso3":"CMR","country":"Cameroun","lat":3.8667,"lng":11.5167,"pop":1299369},{"name":"Da Nang","iso3":"VNM","country":"Viêt Nam","lat":16.0678,"lng":108.2208,"pop":1276000},{"name":"Amman","iso3":"JOR","country":"Jordanie","lat":31.9552,"lng":35.945,"pop":1275857},{"name":"Budta","iso3":"PHL","country":"Philippines","lat":7.2042,"lng":124.4397,"pop":1273715},{"name":"Belgrade","iso3":"SRB","country":"Serbie","lat":44.804,"lng":20.4651,"pop":1273651},{"name":"Montevideo","iso3":"URY","country":"Uruguay","lat":-34.9033,"lng":-56.1882,"pop":1270737},{"name":"Nizhniy Novgorod","iso3":"RUS","country":"Russie","lat":56.3287,"lng":44.002,"pop":1259013},{"name":"Maputo","iso3":"MOZ","country":"Mozambique","lat":-25.9655,"lng":32.5832,"pop":1254837},{"name":"Dammam","iso3":"SAU","country":"Arabie Saoudite","lat":26.4344,"lng":50.1033,"pop":1252523},{"name":"Shiraz","iso3":"IRN","country":"Iran","lat":29.6103,"lng":52.5311,"pop":1249942},{"name":"Kananga","iso3":"COD","country":"Congo (Rép. dém.)","lat":-5.8962,"lng":22.4166,"pop":1247168},{"name":"Kazan","iso3":"RUS","country":"Russie","lat":55.7887,"lng":49.1221,"pop":1243500},{"name":"Barquisimeto","iso3":"VEN","country":"Venezuela","lat":10.0647,"lng":-69.357,"pop":1240714},{"name":"Shubrā al Khaymah","iso3":"EGY","country":"Égypte","lat":30.1251,"lng":31.2505,"pop":1240289},{"name":"Port-au-Prince","iso3":"HTI","country":"Haïti","lat":18.5435,"lng":-72.3388,"pop":1234742},{"name":"Callao","iso3":"PER","country":"Pérou","lat":-12.0516,"lng":-77.1345,"pop":1226200},{"name":"Mombasa","iso3":"KEN","country":"Kenya","lat":-4.0547,"lng":39.6636,"pop":1208333},{"name":"Mandalay","iso3":"MMR","country":"Birmanie","lat":21.9747,"lng":96.0836,"pop":1208099},{"name":"Barranquilla","iso3":"COL","country":"Colombie","lat":10.9685,"lng":-74.7813,"pop":1206319},{"name":"Chelyabinsk","iso3":"RUS","country":"Russie","lat":55.1611,"lng":61.4288,"pop":1202371},{"name":"Santiago de los Caballeros","iso3":"DOM","country":"République dominicaine","lat":19.4504,"lng":-70.6908,"pop":1200000},{"name":"Shymkent","iso3":"KAZ","country":"Kazakhstan","lat":42.3099,"lng":69.6004,"pop":1200000},{"name":"Matola","iso3":"MOZ","country":"Mozambique","lat":-25.9622,"lng":32.4589,"pop":1198988},{"name":"Arequipa","iso3":"PER","country":"Pérou","lat":-16.399,"lng":-71.5375,"pop":1195700},{"name":"Fes","iso3":"MAR","country":"Maroc","lat":34.0331,"lng":-5.0003,"pop":1191905},{"name":"Nouakchott","iso3":"MRT","country":"Mauritanie","lat":18.0858,"lng":-15.9785,"pop":1184530},{"name":"Kisangani","iso3":"COD","country":"Congo (Rép. dém.)","lat":0.5153,"lng":25.191,"pop":1181788},{"name":"Omsk","iso3":"RUS","country":"Russie","lat":54.9924,"lng":73.3686,"pop":1172070},{"name":"Pikine","iso3":"SEN","country":"Sénégal","lat":14.7646,"lng":-17.3907,"pop":1170791},{"name":"Prague","iso3":"CZE","country":"Tchéquie","lat":50.088,"lng":14.4208,"pop":1165581},{"name":"Samara","iso3":"RUS","country":"Russie","lat":53.2077,"lng":50.1355,"pop":1163399},{"name":"Aba","iso3":"NGA","country":"Nigéria","lat":5.1066,"lng":7.3667,"pop":1160000},{"name":"Birmingham","iso3":"GBR","country":"Royaume-Uni","lat":52.4814,"lng":-1.8998,"pop":1157603},{"name":"Copenhague","iso3":"DNK","country":"Danemark","lat":55.6759,"lng":12.5655,"pop":1153615},{"name":"Sofia","iso3":"BGR","country":"Bulgarie","lat":42.6975,"lng":23.3241,"pop":1152556},{"name":"Yerevan","iso3":"ARM","country":"Arménie","lat":40.1776,"lng":44.5126,"pop":1144700},{"name":"Kigali","iso3":"RWA","country":"Rwanda","lat":-1.95,"lng":30.0588,"pop":1132686},{"name":"Rostov-on-Don","iso3":"RUS","country":"Russie","lat":47.22,"lng":39.7077,"pop":1130305},{"name":"Malingao","iso3":"PHL","country":"Philippines","lat":7.1608,"lng":124.475,"pop":1121974},{"name":"Touba","iso3":"SEN","country":"Sénégal","lat":14.8623,"lng":-15.8753,"pop":1120824},{"name":"Lilongwe","iso3":"MWI","country":"Malawi","lat":-13.9669,"lng":33.7873,"pop":1115815},{"name":"Mwanza","iso3":"TZA","country":"Tanzanie","lat":-2.5167,"lng":32.9,"pop":1104521},{"name":"Oslo","iso3":"NOR","country":"Norvège","lat":59.9127,"lng":10.7461,"pop":1082575},{"name":"Aden","iso3":"YEM","country":"Yémen","lat":12.7796,"lng":45.0385,"pop":1079670},{"name":"Trujillo","iso3":"PER","country":"Pérou","lat":-8.116,"lng":-79.03,"pop":1067700},{"name":"Gqeberha","iso3":"ZAF","country":"Afrique du Sud","lat":-33.9611,"lng":25.6149,"pop":1050078},{"name":"Tbilisi","iso3":"GEO","country":"Géorgie","lat":41.6914,"lng":44.8341,"pop":1049498},{"name":"Tangier","iso3":"MAR","country":"Maroc","lat":35.7673,"lng":-5.7998,"pop":1035141},{"name":"Pointe-Noire","iso3":"COG","country":"Congo","lat":-4.7761,"lng":11.8635,"pop":1032000},{"name":"Rangpur","iso3":"BGD","country":"Bangladesh","lat":25.7466,"lng":89.2517,"pop":1031388},{"name":"Ashgabat","iso3":"TKM","country":"Turkménistan","lat":37.95,"lng":58.3833,"pop":1030063},{"name":"Comilla","iso3":"BGD","country":"Bangladesh","lat":23.4619,"lng":91.185,"pop":1030000},{"name":"Köln","iso3":"DEU","country":"Allemagne","lat":50.9333,"lng":6.95,"pop":1024621},{"name":"Dublin","iso3":"IRL","country":"Irlande","lat":53.3331,"lng":-6.2489,"pop":1024027},{"name":"Bruxelles","iso3":"BEL","country":"Belgique","lat":50.8505,"lng":4.3488,"pop":1019022},{"name":"Zamboanga","iso3":"PHL","country":"Philippines","lat":6.9103,"lng":122.0739,"pop":1018849},{"name":"Ottawa","iso3":"CAN","country":"Canada","lat":45.4112,"lng":-75.6981,"pop":1017449},{"name":"Khartoum North","iso3":"SDN","country":"Soudan","lat":15.6493,"lng":32.5346,"pop":1012211},{"name":"Edmonton","iso3":"CAN","country":"Canada","lat":53.5501,"lng":-113.4687,"pop":1010899},{"name":"Odesa","iso3":"UKR","country":"Ukraine","lat":46.4857,"lng":30.7438,"pop":1010537},{"name":"Guatemala City","iso3":"GTM","country":"Guatemala","lat":14.6407,"lng":-90.5133,"pop":994938},{"name":"Ciudad Guayana","iso3":"VEN","country":"Venezuela","lat":8.3512,"lng":-62.641,"pop":978202},{"name":"Managua","iso3":"NIC","country":"Nicaragua","lat":12.1328,"lng":-86.2504,"pop":973087},{"name":"Jerusalem","iso3":"ISR","country":"Israël","lat":31.769,"lng":35.2163,"pop":971800},{"name":"Dnipro","iso3":"UKR","country":"Ukraine","lat":48.4666,"lng":35.0407,"pop":968502},{"name":"Rosario","iso3":"ARG","country":"Argentine","lat":-32.9468,"lng":-60.6393,"pop":948312},{"name":"Sulţānah","iso3":"SAU","country":"Arabie Saoudite","lat":24.4926,"lng":39.5857,"pop":946697},{"name":"Taiz","iso3":"YEM","country":"Yémen","lat":13.5795,"lng":44.0209,"pop":940600},{"name":"Kingston","iso3":"JAM","country":"Jamaïque","lat":17.997,"lng":-76.7936,"pop":937700},{"name":"Nay Pyi Taw","iso3":"MMR","country":"Birmanie","lat":19.745,"lng":96.1297,"pop":925000},{"name":"Cartagena","iso3":"COL","country":"Colombie","lat":10.3982,"lng":-75.4933,"pop":914552},{"name":"Naples","iso3":"ITA","country":"Italie","lat":40.8522,"lng":14.2681,"pop":909048},{"name":"Bobo-Dioulasso","iso3":"BFA","country":"Burkina Faso","lat":11.1806,"lng":-4.2949,"pop":904920},{"name":"Blantyre","iso3":"MWI","country":"Malawi","lat":-15.785,"lng":35.0085,"pop":902588},{"name":"Donetsk","iso3":"UKR","country":"Ukraine","lat":48.023,"lng":37.8022,"pop":901645},{"name":"Qom","iso3":"IRN","country":"Iran","lat":34.6401,"lng":50.8764,"pop":900000},{"name":"Bishkek","iso3":"KGZ","country":"Kirghizistan","lat":42.87,"lng":74.59,"pop":900000},{"name":"Mulenvos","iso3":"AGO","country":"Angola","lat":-8.8669,"lng":13.3344,"pop":882014},{"name":"Marseille","iso3":"FRA","country":"France","lat":43.297,"lng":5.3811,"pop":877215},{"name":"Rotterdam","iso3":"NLD","country":"Pays-Bas","lat":51.9225,"lng":4.4792,"pop":868135},{"name":"Viana","iso3":"AGO","country":"Angola","lat":-8.9055,"lng":13.375,"pop":865863},{"name":"Johor Bahru","iso3":"MYS","country":"Malaisie","lat":1.4655,"lng":103.7578,"pop":858118},{"name":"Tegucigalpa","iso3":"HND","country":"Honduras","lat":14.0818,"lng":-87.2068,"pop":850848},{"name":"Turin","iso3":"ITA","country":"Italie","lat":45.0705,"lng":7.6868,"pop":847287},{"name":"Libreville","iso3":"GAB","country":"Gabon","lat":0.3924,"lng":9.4536,"pop":846090},{"name":"Ulan Bator","iso3":"MNG","country":"Mongolie","lat":47.9077,"lng":106.8832,"pop":844818},{"name":"Takeo","iso3":"KHM","country":"Cambodge","lat":10.9908,"lng":104.785,"pop":843931},{"name":"Cochabamba","iso3":"BOL","country":"Bolivie","lat":-17.3819,"lng":-66.1599,"pop":841276},{"name":"Vientiane","iso3":"LAO","country":"Laos","lat":17.9667,"lng":102.6,"pop":840940},{"name":"Kampung Baru Subang","iso3":"MYS","country":"Malaisie","lat":3.15,"lng":101.5333,"pop":833571},{"name":"Bouaké","iso3":"CIV","country":"Côte d'Ivoire","lat":7.6939,"lng":-5.0303,"pop":832371},{"name":"Valencia","iso3":"ESP","country":"Espagne","lat":39.4739,"lng":-0.3797,"pop":824340},{"name":"Bukavu","iso3":"COD","country":"Congo (Rép. dém.)","lat":-2.4908,"lng":28.8428,"pop":816811},{"name":"Kraków","iso3":"POL","country":"Pologne","lat":50.0614,"lng":19.9366,"pop":816614},{"name":"Bangui","iso3":"CAF","country":"République centrafricaine","lat":4.3612,"lng":18.555,"pop":812407},{"name":"Petaling Jaya","iso3":"MYS","country":"Malaisie","lat":3.1073,"lng":101.6067,"pop":807879},{"name":"Oran","iso3":"DZA","country":"Algérie","lat":35.6991,"lng":-0.6359,"pop":803329},{"name":"Freetown","iso3":"SLE","country":"Sierra Leone","lat":8.4871,"lng":-13.2356,"pop":802639},{"name":"San Pedro Sula","iso3":"HND","country":"Honduras","lat":15.5059,"lng":-88.0259,"pop":801259},{"name":"Muscat","iso3":"OMN","country":"Oman","lat":23.5841,"lng":58.4078,"pop":797000},{"name":"Zarqa","iso3":"JOR","country":"Jordanie","lat":32.0727,"lng":36.088,"pop":792665},{"name":"Kolwezi","iso3":"COD","country":"Congo (Rép. dém.)","lat":-10.7148,"lng":25.4667,"pop":790248},{"name":"Port Said","iso3":"EGY","country":"Égypte","lat":31.2653,"lng":32.3019,"pop":780515},{"name":"Cúcuta","iso3":"COL","country":"Colombie","lat":7.9074,"lng":-72.5049,"pop":777106},{"name":"Homs","iso3":"SYR","country":"Syrie","lat":34.724,"lng":36.7256,"pop":775404},{"name":"Ibb","iso3":"YEM","country":"Yémen","lat":13.9667,"lng":44.1833,"pop":771514},{"name":"Nampula","iso3":"MOZ","country":"Mozambique","lat":-15.1165,"lng":39.2666,"pop":770379},{"name":"Bujumbura","iso3":"BDI","country":"Burundi","lat":-3.3819,"lng":29.3614,"pop":769317},{"name":"Dodoma","iso3":"TZA","country":"Tanzanie","lat":-6.1722,"lng":35.7395,"pop":765179},{"name":"Rajshahi","iso3":"BGD","country":"Bangladesh","lat":24.374,"lng":88.6011,"pop":763580},{"name":"Benghazi","iso3":"LBY","country":"Libye","lat":32.1149,"lng":20.0686,"pop":757490},{"name":"Winnipeg","iso3":"CAN","country":"Canada","lat":49.8844,"lng":-97.147,"pop":749607},{"name":"Andijon","iso3":"UZB","country":"Ouzbékistan","lat":40.7834,"lng":72.3507,"pop":747800},{"name":"Riga","iso3":"LVA","country":"Lettonie","lat":56.946,"lng":24.1059,"pop":742572},{"name":"Amsterdam","iso3":"NLD","country":"Pays-Bas","lat":52.374,"lng":4.8897,"pop":741636},{"name":"Kikolo","iso3":"AGO","country":"Angola","lat":-8.7815,"lng":13.3338,"pop":728205},{"name":"Maianga","iso3":"AGO","country":"Angola","lat":-8.8469,"lng":13.237,"pop":727681},{"name":"Namangan","iso3":"UZB","country":"Ouzbékistan","lat":40.9983,"lng":71.6726,"pop":713220},{"name":"Zanzibar","iso3":"TZA","country":"Tanzanie","lat":-6.1639,"lng":39.1979,"pop":709809},{"name":"Santo Domingo Oeste","iso3":"DOM","country":"République dominicaine","lat":18.5,"lng":-70.0,"pop":701269},{"name":"Suez","iso3":"EGY","country":"Égypte","lat":29.9737,"lng":32.5263,"pop":699541},{"name":"Sarajevo","iso3":"BIH","country":"Bosnie-Herzégovine","lat":43.8486,"lng":18.3564,"pop":696731},{"name":"Tunis","iso3":"TUN","country":"Tunisie","lat":36.819,"lng":10.1658,"pop":693210},{"name":"Hlaingthaya","iso3":"MMR","country":"Birmanie","lat":16.85,"lng":96.0667,"pop":687867},{"name":"Beira","iso3":"MOZ","country":"Mozambique","lat":-19.8436,"lng":34.8389,"pop":687764},{"name":"Zaragoza","iso3":"ESP","country":"Espagne","lat":41.6561,"lng":-0.8773,"pop":686986},{"name":"Sevilla","iso3":"ESP","country":"Espagne","lat":37.3828,"lng":-5.9732,"pop":686741},{"name":"Dushanbe","iso3":"TJK","country":"Tadjikistan","lat":38.5358,"lng":68.779,"pop":679400},{"name":"Cotonou","iso3":"BEN","country":"Bénin","lat":6.3654,"lng":2.4183,"pop":679012},{"name":"Wrocław","iso3":"POL","country":"Pologne","lat":51.1029,"lng":17.0301,"pop":672545},{"name":"Kitwe","iso3":"ZMB","country":"Zambie","lat":-12.8024,"lng":28.2132,"pop":665961},{"name":"Bulawayo","iso3":"ZWE","country":"Zimbabwe","lat":-20.15,"lng":28.5833,"pop":665952},{"name":"Athènes","iso3":"GRC","country":"Grèce","lat":37.9838,"lng":23.7278,"pop":664046},{"name":"Zagreb","iso3":"HRV","country":"Croatie","lat":45.8144,"lng":15.978,"pop":663592},{"name":"Helsinki","iso3":"FIN","country":"Finlande","lat":60.1695,"lng":24.9354,"pop":658864},{"name":"Frankfurt am Main","iso3":"DEU","country":"Allemagne","lat":50.1155,"lng":8.6842,"pop":650000},{"name":"Palermo","iso3":"ITA","country":"Italie","lat":38.1166,"lng":13.3636,"pop":648260},{"name":"Colombo","iso3":"LKA","country":"Sri Lanka","lat":6.9355,"lng":79.8487,"pop":648034},{"name":"Gold Coast","iso3":"AUS","country":"Australie","lat":-28.0003,"lng":153.4309,"pop":640778},{"name":"Łódź","iso3":"POL","country":"Pologne","lat":51.7706,"lng":19.4739,"pop":639890},{"name":"Al Aḩmadī","iso3":"KWT","country":"Koweït","lat":29.0769,"lng":48.0839,"pop":637411},{"name":"Cuenca","iso3":"ECU","country":"Équateur","lat":-2.8953,"lng":-78.9963,"pop":636996},{"name":"Chisinau","iso3":"MDA","country":"Moldavie","lat":47.009,"lng":28.8594,"pop":635994},{"name":"Likasi","iso3":"COD","country":"Congo (Rép. dém.)","lat":-10.983,"lng":26.7384,"pop":635768},{"name":"Piura","iso3":"PER","country":"Pérou","lat":-5.1819,"lng":-80.6572,"pop":630000},{"name":"Ndola","iso3":"ZMB","country":"Zambie","lat":-12.9587,"lng":28.6366,"pop":627503},{"name":"Djibouti","iso3":"DJI","country":"Djibouti","lat":11.589,"lng":43.145,"pop":626512},{"name":"Glasgow","iso3":"GBR","country":"Royaume-Uni","lat":55.8651,"lng":-4.2576,"pop":626410},{"name":"Al Mansurah","iso3":"EGY","country":"Égypte","lat":31.0364,"lng":31.3807,"pop":621953},{"name":"Düsseldorf","iso3":"DEU","country":"Allemagne","lat":51.2232,"lng":6.7793,"pop":618685},{"name":"Villa Nueva","iso3":"GTM","country":"Guatemala","lat":14.5251,"lng":-90.5854,"pop":618397},{"name":"Arusha","iso3":"TZA","country":"Tanzanie","lat":-3.3667,"lng":36.6833,"pop":617631},{"name":"Gothenburg","iso3":"SWE","country":"Suède","lat":57.7072,"lng":11.9668,"pop":608462},{"name":"Pokhara","iso3":"NPL","country":"Népal","lat":28.2669,"lng":83.9685,"pop":600051},{"name":"Borama","iso3":"SOM","country":"Somalie","lat":9.9361,"lng":43.1828,"pop":597842},{"name":"Samarkand","iso3":"UZB","country":"Ouzbékistan","lat":39.6546,"lng":66.9644,"pop":595200},{"name":"Mar del Plata","iso3":"ARG","country":"Argentine","lat":-38.0004,"lng":-57.5562,"pop":593337},{"name":"Herāt","iso3":"AFG","country":"Afghanistan","lat":34.3482,"lng":62.1997,"pop":574300},{"name":"Nakuru","iso3":"KEN","country":"Kenya","lat":-0.3072,"lng":36.0722,"pop":570674},{"name":"Irbid","iso3":"JOR","country":"Jordanie","lat":32.5556,"lng":35.85,"pop":569068},{"name":"Manchester","iso3":"GBR","country":"Royaume-Uni","lat":53.4809,"lng":-2.2374,"pop":568996},{"name":"Puente Alto","iso3":"CHL","country":"Chili","lat":-33.6117,"lng":-70.5758,"pop":568106},{"name":"Nyala","iso3":"SDN","country":"Soudan","lat":12.0489,"lng":24.8807,"pop":565734},{"name":"Asmara","iso3":"ERI","country":"Érythrée","lat":15.3381,"lng":38.9318,"pop":563930},{"name":"Hamhŭng","iso3":"PRK","country":"Corée du Nord","lat":39.9183,"lng":127.5364,"pop":559056},{"name":"Sheffield","iso3":"GBR","country":"Royaume-Uni","lat":53.383,"lng":-1.4659,"pop":556500},{"name":"Santiago de Cuba","iso3":"CUB","country":"Cuba","lat":20.0229,"lng":-75.8217,"pop":555865},{"name":"San Miguel de Tucumán","iso3":"ARG","country":"Argentine","lat":-26.816,"lng":-65.2105,"pop":548866},{"name":"Vilnius","iso3":"LTU","country":"Lituanie","lat":54.6892,"lng":25.2798,"pop":542366},{"name":"Mbeya","iso3":"TZA","country":"Tanzanie","lat":-8.9,"lng":33.45,"pop":541603},{"name":"Nansana","iso3":"UGA","country":"Ouganda","lat":0.3639,"lng":32.5286,"pop":532800},{"name":"Anvers","iso3":"BEL","country":"Belgique","lat":51.2205,"lng":4.4003,"pop":529247},{"name":"Mohammadpur","iso3":"BGD","country":"Bangladesh","lat":24.8984,"lng":88.5284,"pop":527571},{"name":"San Salvador","iso3":"SLV","country":"Salvador","lat":13.6893,"lng":-89.1872,"pop":525990},{"name":"Mazār-e Sharīf","iso3":"AFG","country":"Afghanistan","lat":36.709,"lng":67.1109,"pop":523300},{"name":"Kandahār","iso3":"AFG","country":"Afghanistan","lat":31.6133,"lng":65.7101,"pop":523300},{"name":"Lyon","iso3":"FRA","country":"France","lat":45.7491,"lng":4.8479,"pop":520774},{"name":"Salta","iso3":"ARG","country":"Argentine","lat":-24.8065,"lng":-65.42,"pop":520683},{"name":"Lisbonne","iso3":"PRT","country":"Portugal","lat":38.7251,"lng":-9.1498,"pop":517802},{"name":"Toulouse","iso3":"FRA","country":"France","lat":43.6043,"lng":1.4437,"pop":511684},{"name":"Carrefour","iso3":"HTI","country":"Haïti","lat":18.5333,"lng":-72.4,"pop":511345},{"name":"Maipú","iso3":"CHL","country":"Chili","lat":-33.5142,"lng":-70.7651,"pop":503635},{"name":"Homyel'","iso3":"BLR","country":"Biélorussie","lat":52.4345,"lng":30.9754,"pop":501102},{"name":"Aktobe","iso3":"KAZ","country":"Kazakhstan","lat":50.2797,"lng":57.2072,"pop":500757},{"name":"Karagandy","iso3":"KAZ","country":"Kazakhstan","lat":49.8019,"lng":73.1021,"pop":497777},{"name":"Ruiru","iso3":"KEN","country":"Kenya","lat":-1.1466,"lng":36.9609,"pop":490120},{"name":"Port Sudan","iso3":"SDN","country":"Soudan","lat":19.6175,"lng":37.2164,"pop":489725},{"name":"Jijiga","iso3":"ETH","country":"Éthiopie","lat":9.35,"lng":42.8,"pop":483000},{"name":"Hargeysa","iso3":"SOM","country":"Somalie","lat":9.56,"lng":44.065,"pop":477876},{"name":"Skopje","iso3":"MKD","country":"Macédoine du Nord","lat":41.9965,"lng":21.4314,"pop":474889},{"name":"La Haye","iso3":"NLD","country":"Pays-Bas","lat":52.0767,"lng":4.2986,"pop":474292},{"name":"Seeb","iso3":"OMN","country":"Oman","lat":23.6703,"lng":58.1891,"pop":470878},{"name":"Gonder","iso3":"ETH","country":"Éthiopie","lat":12.6,"lng":37.4667,"pop":466000},{"name":"Mixco","iso3":"GTM","country":"Guatemala","lat":14.6308,"lng":-90.6071,"pop":465773},{"name":"Tamale","iso3":"GHA","country":"Ghana","lat":9.4008,"lng":-0.8393,"pop":464316},{"name":"Kira","iso3":"UGA","country":"Ouganda","lat":0.4,"lng":32.6333,"pop":462900},{"name":"Mek'ele","iso3":"ETH","country":"Éthiopie","lat":13.4967,"lng":39.4753,"pop":457900},{"name":"Nazrēt","iso3":"ETH","country":"Éthiopie","lat":8.55,"lng":39.2667,"pop":456900},{"name":"Namp’o","iso3":"PRK","country":"Corée du Nord","lat":38.7375,"lng":125.4078,"pop":455000},{"name":"Warder","iso3":"ETH","country":"Éthiopie","lat":6.9744,"lng":45.3408,"pop":450400},{"name":"Juba","iso3":"SSD","country":"Soudan du Sud","lat":4.8517,"lng":31.5825,"pop":450000},{"name":"Constantine","iso3":"DZA","country":"Algérie","lat":36.365,"lng":6.6147,"pop":448028},{"name":"Korhogo","iso3":"CIV","country":"Côte d'Ivoire","lat":9.458,"lng":-5.6296,"pop":440926},{"name":"Bissau","iso3":"GNB","country":"Guinée-Bissau","lat":11.8636,"lng":-15.5977,"pop":439704},{"name":"Mawlamyine","iso3":"MMR","country":"Birmanie","lat":16.4905,"lng":97.6282,"pop":438861},{"name":"Sunch’ŏn","iso3":"PRK","country":"Corée du Nord","lat":39.4317,"lng":125.9328,"pop":437000},{"name":"Tel Aviv","iso3":"ISR","country":"Israël","lat":32.0809,"lng":34.7806,"pop":432892},{"name":"Sumgayit","iso3":"AZE","country":"Azerbaïdjan","lat":40.5897,"lng":49.6686,"pop":427000},{"name":"Bratislava","iso3":"SVK","country":"Slovaquie","lat":48.1482,"lng":17.1067,"pop":423737},{"name":"Awasa","iso3":"ETH","country":"Éthiopie","lat":7.0621,"lng":38.4763,"pop":422200},{"name":"Chimoio","iso3":"MOZ","country":"Mozambique","lat":-19.1164,"lng":33.4833,"pop":422046},{"name":"Bamenda","iso3":"CMR","country":"Cameroun","lat":5.9597,"lng":10.146,"pop":420445},{"name":"Christchurch","iso3":"NZL","country":"Nouvelle-Zélande","lat":-43.5333,"lng":172.6333,"pop":419200},{"name":"Tirana","iso3":"ALB","country":"Albanie","lat":41.3274,"lng":19.8187,"pop":418495},{"name":"Zürich","iso3":"CHE","country":"Suisse","lat":47.3667,"lng":8.55,"pop":415367},{"name":"Bunamwaya","iso3":"UGA","country":"Ouganda","lat":0.2534,"lng":32.5572,"pop":413400},{"name":"Panama City","iso3":"PAN","country":"Panama","lat":8.9936,"lng":-79.5197,"pop":408168},{"name":"Kassala","iso3":"SDN","country":"Soudan","lat":15.451,"lng":36.4,"pop":401477},{"name":"Antofagasta","iso3":"CHL","country":"Chili","lat":-23.6509,"lng":-70.3975,"pop":401096},{"name":"Delmas","iso3":"HTI","country":"Haïti","lat":18.5448,"lng":-72.3004,"pop":395260},{"name":"Tallinn","iso3":"EST","country":"Estonie","lat":59.437,"lng":24.7535,"pop":394024},{"name":"Santa Fe","iso3":"ARG","country":"Argentine","lat":-31.6488,"lng":-60.7087,"pop":391164},{"name":"Takoradi","iso3":"GHA","country":"Ghana","lat":4.8982,"lng":-1.7603,"pop":389114},{"name":"Samut Prakan","iso3":"THA","country":"Thaïlande","lat":13.5976,"lng":100.5972,"pop":388920},{"name":"Windhoek","iso3":"NAM","country":"Namibie","lat":-22.5594,"lng":17.0832,"pop":386219},{"name":"Abomey-Calavi","iso3":"BEN","country":"Bénin","lat":6.4485,"lng":2.3557,"pop":385755},{"name":"Brno","iso3":"CZE","country":"Tchéquie","lat":49.1952,"lng":16.608,"pop":379466},{"name":"Iaşi","iso3":"ROU","country":"Roumanie","lat":47.1667,"lng":27.6,"pop":378954},{"name":"Bafoussam","iso3":"CMR","country":"Cameroun","lat":5.4778,"lng":10.4176,"pop":373268},{"name":"Chitungwiza","iso3":"ZWE","country":"Zimbabwe","lat":-18.0127,"lng":31.0755,"pop":371246},{"name":"Bharatpur","iso3":"NPL","country":"Népal","lat":27.6803,"lng":84.4365,"pop":369377},{"name":"Malmö","iso3":"SWE","country":"Suède","lat":55.6059,"lng":13.0007,"pop":362133},{"name":"Maradi","iso3":"NER","country":"Niger","lat":13.5,"lng":7.1017,"pop":361702},{"name":"Hrodna","iso3":"BLR","country":"Biélorussie","lat":53.6758,"lng":23.8289,"pop":361115},{"name":"Maseru","iso3":"LSO","country":"Lesotho","lat":-29.3167,"lng":27.4833,"pop":359753},{"name":"Misratah","iso3":"LBY","country":"Libye","lat":32.3753,"lng":15.0925,"pop":355657},{"name":"Bahir Dar","iso3":"ETH","country":"Éthiopie","lat":11.5936,"lng":37.3908,"pop":350000},{"name":"Sikasso","iso3":"MLI","country":"Mali","lat":11.3176,"lng":-5.6665,"pop":349324},{"name":"Bimbo","iso3":"CAF","country":"République centrafricaine","lat":4.2567,"lng":18.4158,"pop":348802},{"name":"Camagüey","iso3":"CUB","country":"Cuba","lat":21.3808,"lng":-77.9169,"pop":347562},{"name":"Toamasina","iso3":"MDG","country":"Madagascar","lat":-18.1492,"lng":49.4023,"pop":345107},{"name":"Doha","iso3":"QAT","country":"Qatar","lat":25.2855,"lng":51.531,"pop":344939},{"name":"Dire Dawa","iso3":"ETH","country":"Éthiopie","lat":9.5931,"lng":41.8661,"pop":343000},{"name":"Annaba","iso3":"DZA","country":"Algérie","lat":36.9,"lng":7.7667,"pop":342703},{"name":"Nice","iso3":"FRA","country":"France","lat":43.7031,"lng":7.2661,"pop":342669},{"name":"Serekunda","iso3":"GMB","country":"Gambie","lat":13.4383,"lng":-16.6781,"pop":340000},{"name":"San José","iso3":"CRI","country":"Costa Rica","lat":9.9339,"lng":-84.0849,"pop":335007},{"name":"Blida","iso3":"DZA","country":"Algérie","lat":36.47,"lng":2.8277,"pop":331779},{"name":"Ganja","iso3":"AZE","country":"Azerbaïdjan","lat":40.6816,"lng":46.3613,"pop":330663},{"name":"Soyapango","iso3":"SLV","country":"Salvador","lat":13.7102,"lng":-89.1399,"pop":329708},{"name":"Plovdiv","iso3":"BGR","country":"Bulgarie","lat":42.1539,"lng":24.75,"pop":329489},{"name":"Chipata","iso3":"ZMB","country":"Zambie","lat":-13.6333,"lng":32.65,"pop":327059},{"name":"Espoo","iso3":"FIN","country":"Finlande","lat":60.2052,"lng":24.6522,"pop":323910},{"name":"Osh","iso3":"KGZ","country":"Kirghizistan","lat":40.5283,"lng":72.7985,"pop":322164},{"name":"San Miguelito","iso3":"PAN","country":"Panama","lat":9.0503,"lng":-79.4707,"pop":321501},{"name":"Zinder","iso3":"NER","country":"Niger","lat":13.8072,"lng":8.9881,"pop":318874},{"name":"Constanţa","iso3":"ROU","country":"Roumanie","lat":44.1807,"lng":28.6343,"pop":317832},{"name":"Thessaloníki","iso3":"GRC","country":"Grèce","lat":40.6407,"lng":22.9349,"pop":317778},{"name":"Graz","iso3":"AUT","country":"Autriche","lat":47.0673,"lng":15.442,"pop":303270},{"name":"Ciudad del Este","iso3":"PRY","country":"Paraguay","lat":-25.5036,"lng":-54.6507,"pop":301815},{"name":"Winejok","iso3":"SSD","country":"Soudan du Sud","lat":9.0122,"lng":27.5708,"pop":300000},{"name":"Pātan","iso3":"NPL","country":"Népal","lat":27.6766,"lng":85.3142,"pop":299283},{"name":"Bergen","iso3":"NOR","country":"Norvège","lat":60.393,"lng":5.3242,"pop":294029},{"name":"Batna","iso3":"DZA","country":"Algérie","lat":35.556,"lng":6.1741,"pop":289504},{"name":"Kyengera","iso3":"UGA","country":"Ouganda","lat":0.2952,"lng":32.5016,"pop":285400},{"name":"Haifa","iso3":"ISR","country":"Israël","lat":32.813,"lng":34.9993,"pop":285316},{"name":"Århus","iso3":"DNK","country":"Danemark","lat":56.1567,"lng":10.2108,"pop":285273},{"name":"Port Moresby","iso3":"PNG","country":"Papouasie-Nouvelle-Guinée","lat":-9.4772,"lng":147.1509,"pop":283733},{"name":"Sfax","iso3":"TUN","country":"Tunisie","lat":34.7406,"lng":10.7603,"pop":280566},{"name":"Ostrava","iso3":"CZE","country":"Tchéquie","lat":49.8347,"lng":18.282,"pop":279791},{"name":"Ulu Bedok","iso3":"SGP","country":"Singapour","lat":1.3333,"lng":103.9333,"pop":276990},{"name":"Bab Ezzouar","iso3":"DZA","country":"Algérie","lat":36.7261,"lng":3.1829,"pop":275630},{"name":"Isfara","iso3":"TJK","country":"Tadjikistan","lat":40.1265,"lng":70.6253,"pop":274000},{"name":"Istaravshan","iso3":"TJK","country":"Tadjikistan","lat":39.9142,"lng":69.0033,"pop":273500},{"name":"Ljubljana","iso3":"SVN","country":"Slovénie","lat":46.0511,"lng":14.5051,"pop":272220},{"name":"Gent","iso3":"BEL","country":"Belgique","lat":51.05,"lng":3.7167,"pop":265086},{"name":"Porto-Novo","iso3":"BEN","country":"Bénin","lat":6.4965,"lng":2.6036,"pop":264320},{"name":"Antsirabe","iso3":"MDG","country":"Madagascar","lat":-19.8659,"lng":47.0333,"pop":260907},{"name":"Yei","iso3":"SSD","country":"Soudan du Sud","lat":4.0944,"lng":30.6764,"pop":260720},{"name":"Mahajanga","iso3":"MDG","country":"Madagascar","lat":-15.7167,"lng":46.3167,"pop":260556},{"name":"Kenema","iso3":"SLE","country":"Sierra Leone","lat":7.8769,"lng":-11.1903,"pop":255110},{"name":"Mueang Nonthaburi","iso3":"THA","country":"Thaïlande","lat":13.8607,"lng":100.5148,"pop":254375},{"name":"Porto","iso3":"PRT","country":"Portugal","lat":41.1485,"lng":-8.611,"pop":252687},{"name":"Niš","iso3":"SRB","country":"Serbie","lat":43.3247,"lng":21.9033,"pop":250000},{"name":"Mzuzu","iso3":"MWI","country":"Malawi","lat":-11.4656,"lng":34.0207,"pop":249564},{"name":"Gaborone","iso3":"BWA","country":"Botswana","lat":-24.6545,"lng":25.9086,"pop":246325},{"name":"Podgorica","iso3":"MNE","country":"Monténégro","lat":42.4412,"lng":19.2631,"pop":236852},{"name":"Georgetown","iso3":"GUY","country":"Guyana","lat":6.8045,"lng":-58.1553,"pop":235017},{"name":"Danlí","iso3":"HND","country":"Honduras","lat":14.0333,"lng":-86.5833,"pop":233789},{"name":"Türkmenabat","iso3":"TKM","country":"Turkménistan","lat":39.0733,"lng":63.5786,"pop":230861},{"name":"Tripoli","iso3":"LBN","country":"Liban","lat":34.4335,"lng":35.8441,"pop":229398},{"name":"Nassau","iso3":"BHS","country":"Bahamas","lat":25.0582,"lng":-77.3431,"pop":227940},{"name":"Nzérékoré","iso3":"GIN","country":"Guinée","lat":7.7562,"lng":-8.8179,"pop":226426},{"name":"Košice","iso3":"SVK","country":"Slovaquie","lat":48.7144,"lng":21.258,"pop":225044},{"name":"Sucre","iso3":"BOL","country":"Bolivie","lat":-19.0333,"lng":-65.2627,"pop":224838},{"name":"Cork","iso3":"IRL","country":"Irlande","lat":51.898,"lng":-8.4706,"pop":224004},{"name":"Paramaribo","iso3":"SUR","country":"Surinam","lat":5.8664,"lng":-55.1668,"pop":223757},{"name":"Sousse","iso3":"TUN","country":"Tunisie","lat":35.8254,"lng":10.637,"pop":221715},{"name":"Banja Luka","iso3":"BIH","country":"Bosnie-Herzégovine","lat":44.7788,"lng":17.2063,"pop":221106},{"name":"Dehiwala-Mount Lavinia","iso3":"LKA","country":"Sri Lanka","lat":6.8402,"lng":79.8712,"pop":219827},{"name":"Chon Buri","iso3":"THA","country":"Thaïlande","lat":13.3622,"lng":100.9835,"pop":219164},{"name":"Koutiala","iso3":"MLI","country":"Mali","lat":12.3872,"lng":-5.4651,"pop":218031},{"name":"Ségou","iso3":"MLI","country":"Mali","lat":13.4403,"lng":-6.2595,"pop":205787},{"name":"Linz","iso3":"AUT","country":"Autriche","lat":48.3064,"lng":14.2861,"pop":204846},{"name":"Debrecen","iso3":"HUN","country":"Hongrie","lat":47.5317,"lng":21.6244,"pop":202402},{"name":"Genève","iso3":"CHE","country":"Suisse","lat":46.2022,"lng":6.1457,"pop":201741},{"name":"Nicosia","iso3":"CYP","country":"Chypre","lat":35.1728,"lng":33.354,"pop":200452},{"name":"Phra Pradaeng","iso3":"THA","country":"Thaïlande","lat":13.6585,"lng":100.5336,"pop":196129},{"name":"Moundou","iso3":"TCD","country":"Tchad","lat":8.5744,"lng":16.0772,"pop":196124},{"name":"Maharagama","iso3":"LKA","country":"Sri Lanka","lat":6.848,"lng":79.9265,"pop":195355},{"name":"Braga","iso3":"PRT","country":"Portugal","lat":41.5514,"lng":-8.4231,"pop":193324},{"name":"Batumi","iso3":"GEO","country":"Géorgie","lat":41.6408,"lng":41.6306,"pop":186949},{"name":"Basel","iso3":"CHE","country":"Suisse","lat":47.5584,"lng":7.5733,"pop":177595},{"name":"Al Muharraq","iso3":"BHR","country":"Bahreïn","lat":26.2572,"lng":50.6119,"pop":176583},{"name":"Bata","iso3":"GNQ","country":"Guinée équatoriale","lat":1.8639,"lng":9.7658,"pop":173046},{"name":"Gisenyi","iso3":"RWA","country":"Rwanda","lat":-1.7028,"lng":29.2564,"pop":172357},{"name":"Jaffna","iso3":"LKA","country":"Sri Lanka","lat":9.6684,"lng":80.0074,"pop":169102},{"name":"Pátra","iso3":"GRC","country":"Grèce","lat":38.2462,"lng":21.7351,"pop":168034},{"name":"Ḩawallī","iso3":"KWT","country":"Koweït","lat":29.3328,"lng":48.0286,"pop":164212},{"name":"Szeged","iso3":"HUN","country":"Hongrie","lat":46.253,"lng":20.1482,"pop":160766},{"name":"Koudougou","iso3":"BFA","country":"Burkina Faso","lat":12.2519,"lng":-2.3669,"pop":160239},{"name":"Tahoua","iso3":"NER","country":"Niger","lat":14.8888,"lng":5.2692,"pop":159468},{"name":"Tiraspol","iso3":"MDA","country":"Moldavie","lat":46.8428,"lng":29.6284,"pop":157000},{"name":"Port Louis","iso3":"MUS","country":"Île Maurice","lat":-20.1619,"lng":57.4989,"pop":155226},{"name":"Musanze","iso3":"RWA","country":"Rwanda","lat":-1.4998,"lng":29.635,"pop":153368},{"name":"Dili","iso3":"TLS","country":"Timor oriental","lat":-8.5586,"lng":125.5736,"pop":150000},{"name":"Split","iso3":"HRV","country":"Croatie","lat":43.5089,"lng":16.4392,"pop":149830},{"name":"Agadez","iso3":"NER","country":"Niger","lat":16.9733,"lng":7.9911,"pop":149549},{"name":"Nouadhibou","iso3":"MRT","country":"Mauritanie","lat":20.9419,"lng":-17.0384,"pop":146048},{"name":"León","iso3":"NIC","country":"Nicaragua","lat":12.4353,"lng":-86.8786,"pop":144538},{"name":"Abéché","iso3":"TCD","country":"Tchad","lat":13.8292,"lng":20.8324,"pop":139983},{"name":"Siem Reap","iso3":"KHM","country":"Cambodge","lat":13.3618,"lng":103.8606,"pop":139458},{"name":"Sarh","iso3":"TCD","country":"Tchad","lat":9.1456,"lng":18.3833,"pop":138928},{"name":"Praia","iso3":"CPV","country":"Îles du Cap-Vert","lat":14.9315,"lng":-23.5125,"pop":137868},{"name":"Savannakhet","iso3":"LAO","country":"Laos","lat":16.5703,"lng":104.7622,"pop":125760},{"name":"Reykjavík","iso3":"ISL","country":"Islande","lat":64.1355,"lng":-21.8954,"pop":118918},{"name":"Sokodé","iso3":"TGO","country":"Togo","lat":8.9833,"lng":1.1333,"pop":117811},{"name":"Gyumri","iso3":"ARM","country":"Arménie","lat":40.7931,"lng":43.8464,"pop":114667},{"name":"Salto","iso3":"URY","country":"Uruguay","lat":-31.3881,"lng":-57.9598,"pop":114084},{"name":"Manzini","iso3":"SWZ","country":"Eswatini","lat":-26.4988,"lng":31.38,"pop":110537},{"name":"Male","iso3":"MDV","country":"Maldives","lat":4.1752,"lng":73.5092,"pop":103693},{"name":"Thimphu","iso3":"BTN","country":"Bhoutan","lat":27.4661,"lng":89.6419,"pop":98676},{"name":"Bridgetown","iso3":"BRB","country":"Barbade","lat":13.1073,"lng":-59.6202,"pop":98511},{"name":"Erdenet","iso3":"MNG","country":"Mongolie","lat":49.0333,"lng":104.0833,"pop":97814},{"name":"Nasinu","iso3":"FJI","country":"Fidji","lat":-18.0705,"lng":178.5131,"pop":92043},{"name":"Gbarnga","iso3":"LBR","country":"Liberia","lat":6.9954,"lng":-9.4712,"pop":86031},{"name":"Darhan","iso3":"MNG","country":"Mongolie","lat":49.4867,"lng":105.9228,"pop":83883},{"name":"Luxembourg","iso3":"LUX","country":"Luxembourg","lat":49.6098,"lng":6.1327,"pop":76684},{"name":"Lae","iso3":"PNG","country":"Papouasie-Nouvelle-Guinée","lat":-6.7233,"lng":146.9961,"pop":76255},{"name":"Rundu","iso3":"NAM","country":"Namibie","lat":-17.918,"lng":19.7731,"pop":75180},{"name":"Keren","iso3":"ERI","country":"Érythrée","lat":15.7779,"lng":38.4511,"pop":74800},{"name":"Moroni","iso3":"COM","country":"Comores","lat":-11.7022,"lng":43.2551,"pop":74749},{"name":"Chaguanas","iso3":"TTO","country":"Trinité-et-Tobago","lat":10.5167,"lng":-61.4167,"pop":67433},{"name":"Belize City","iso3":"BLZ","country":"Belize","lat":17.4995,"lng":-88.1976,"pop":65222},{"name":"Gitega","iso3":"BDI","country":"Burundi","lat":-3.4271,"lng":29.9246,"pop":64904},{"name":"Bandar Seri Begawan","iso3":"BRN","country":"Brunei","lat":4.8903,"lng":114.9401,"pop":64409},{"name":"Limón","iso3":"CRI","country":"Costa Rica","lat":9.9907,"lng":-83.036,"pop":63081},{"name":"Kiffa","iso3":"MRT","country":"Mauritanie","lat":16.6207,"lng":-11.4021,"pop":62051},{"name":"Ngozi","iso3":"BDI","country":"Burundi","lat":-2.9075,"lng":29.8306,"pop":61716},{"name":"Honiara","iso3":"SLB","country":"Îles Salomon","lat":-9.4333,"lng":159.95,"pop":56298},{"name":"São Tomé","iso3":"STP","country":"São Tomé et Príncipe","lat":0.3376,"lng":6.7299,"pop":53300},{"name":"Saint John’s","iso3":"ATG","country":"Antigua-et-Barbuda","lat":17.121,"lng":-61.8433,"pop":51737},{"name":"Apia","iso3":"WSM","country":"Samoa","lat":-13.8333,"lng":-171.7667,"pop":40407},{"name":"Tarawa","iso3":"KIR","country":"Kiribati","lat":1.3278,"lng":172.977,"pop":40311},{"name":"Arawa","iso3":"PNG","country":"Papouasie-Nouvelle-Guinée","lat":-6.2298,"lng":155.566,"pop":40266},{"name":"Port-Vila","iso3":"VUT","country":"Vanuatu","lat":-17.7365,"lng":168.3137,"pop":35901},{"name":"Monaco","iso3":"MCO","country":"Monaco","lat":43.7372,"lng":7.4215,"pop":32965},{"name":"San Pawl il-Baħar","iso3":"MLT","country":"Malte","lat":35.9506,"lng":14.4156,"pop":32042},{"name":"Majuro","iso3":"MHL","country":"Îles Marshall","lat":7.0897,"lng":171.3803,"pop":25400},{"name":"Gros Islet","iso3":"LCA","country":"Sainte-Lucie","lat":14.0667,"lng":-60.95,"pop":25210},{"name":"Kingstown","iso3":"VCT","country":"Saint-Vincent-et-les-Grenadines","lat":13.1553,"lng":-61.2274,"pop":24518},{"name":"Victoria","iso3":"SYC","country":"Seychelles","lat":-4.62,"lng":55.455,"pop":22881},{"name":"Nuku‘alofa","iso3":"TON","country":"Tonga","lat":-21.1368,"lng":-175.2011,"pop":22400},{"name":"Andorra la Vella","iso3":"AND","country":"Andorre","lat":42.5078,"lng":1.5211,"pop":20430},{"name":"Roseau","iso3":"DMA","country":"Dominique","lat":15.3017,"lng":-61.3881,"pop":16571},{"name":"Basseterre","iso3":"KNA","country":"Saint-Christophe-et-Niévès","lat":17.2955,"lng":-62.725,"pop":12920},{"name":"Saint George's","iso3":"GRD","country":"Grenade","lat":12.0529,"lng":-61.7523,"pop":7500},{"name":"Palikir","iso3":"FSM","country":"Micronésie","lat":6.9248,"lng":158.1611,"pop":6942},{"name":"Funafuti","iso3":"TUV","country":"Tuvalu","lat":-8.5243,"lng":179.1942,"pop":6320},{"name":"Vaduz","iso3":"LIE","country":"Liechtenstein","lat":47.1415,"lng":9.5215,"pop":5197},{"name":"San Marino","iso3":"SMR","country":"Saint-Marin","lat":43.9367,"lng":12.4464,"pop":4500},{"name":"Yaren","iso3":"NRU","country":"Nauru","lat":-0.5508,"lng":166.9252,"pop":1100},{"name":"Vatican City","iso3":"VAT","country":"Cité du Vatican","lat":41.9027,"lng":12.4541,"pop":829},{"name":"Ngerulmud","iso3":"PLW","country":"Palaos (Palau)","lat":7.5008,"lng":134.6238,"pop":0}]